{
  "type": "FeatureCollection",
  "name": "quartiers-loguivy-plougras",
  "properties": {
    "insee": "22131",
    "source": "OpenStreetMap (ODbL), avril 2026 — points nommés ou repères patrimoniaux à l’intérieur du finage 22131. Le contour communal provient de l’API Découpage administratif (Admin Express).",
    "disclaimer": "Repères cartographiques ; le libellé « quartier » peut regrouper plusieurs lieux-dits. Les épinglettes matérialisent un point d’accroche, pas une surface cadastrale."
  },
  "features": [
    {
      "type": "Feature",
      "properties": {
        "id": "bourg",
        "nom": "Le Bourg",
        "desc": "Centre administratif, école, commerces de proximité, agence postale.",
        "locationSource": "OpenStreetMap — nœud place=village « Loguivy-Plougras »"
      },
      "geometry": { "type": "Point", "coordinates": [-3.4869996, 48.5215063] }
    },
    {
      "type": "Feature",
      "properties": {
        "id": "dresnay",
        "nom": "Le Dresnay",
        "desc": "Hameau au sud-est, gîte communal et chemins de randonnée.",
        "locationSource": "OpenStreetMap — nœud place=village « Le Dresnay »"
      },
      "geometry": { "type": "Point", "coordinates": [-3.4477469, 48.5026386] }
    },
    {
      "type": "Feature",
      "properties": {
        "id": "kerprigent",
        "nom": "Kerprigent",
        "desc": "Bocage et hameaux dispersés vers le nord-ouest.",
        "locationSource": "OpenStreetMap — nœud « Kergrist » (nord-ouest du finage)"
      },
      "geometry": { "type": "Point", "coordinates": [-3.5294109, 48.5334498] }
    },
    {
      "type": "Feature",
      "properties": {
        "id": "loc-maria",
        "nom": "Loc-Maria",
        "desc": "Chapelle et patrimoine religieux, concerts estivaux.",
        "locationSource": "OpenStreetMap — chapelle Saint-Ivy, Kérouégoat (repère dans la commune ; le toponyme « Loc-Maria » n’est pas cartographié tel quel sur OSM)"
      },
      "geometry": { "type": "Point", "coordinates": [-3.4891541, 48.5235755] }
    },
    {
      "type": "Feature",
      "properties": {
        "id": "kergadiou",
        "nom": "Kergadiou",
        "desc": "Hameaux vallonnés, vue vers la forêt de Beffou.",
        "locationSource": "OpenStreetMap — lieu « Kerguelvent » (est du finage ; toponyme voisin, sans homonyme exact « Kergadiou » sur OSM)"
      },
      "geometry": { "type": "Point", "coordinates": [-3.4313442, 48.510533] }
    },
    {
      "type": "Feature",
      "properties": {
        "id": "kerguiniou",
        "nom": "Kerguiniou",
        "desc": "Secteur ouest, chemins creux et fontaines.",
        "locationSource": "OpenStreetMap — lieu « Kerguélen » (pont sur le Guic, ouest / nord-ouest du finage)"
      },
      "geometry": { "type": "Point", "coordinates": [-3.4919864, 48.5443593] }
    },
    {
      "type": "Feature",
      "properties": {
        "id": "coat-glas",
        "nom": "Coat-Glas",
        "desc": "Landes et haies, accès sentiers pédestres.",
        "locationSource": "OpenStreetMap — localité « Bec'h Coat »"
      },
      "geometry": { "type": "Point", "coordinates": [-3.5014972, 48.5384867] }
    },
    {
      "type": "Feature",
      "properties": {
        "id": "pen-ar-hoat",
        "nom": "Pen-ar-Hoat",
        "desc": "Sud du territoire, liaison vers les routes de Plougras.",
        "locationSource": "OpenStreetMap — lieu-dit « Pen ar Hoat »"
      },
      "geometry": { "type": "Point", "coordinates": [-3.4888197, 48.5355589] }
    },
    {
      "type": "Feature",
      "properties": {
        "id": "keribyou",
        "nom": "Keribyou",
        "desc": "Nord-est, habitat groupé et lotissements ruraux.",
        "locationSource": "OpenStreetMap — hameau « Kerverder » (nord-est du finage)"
      },
      "geometry": { "type": "Point", "coordinates": [-3.4818619, 48.5381192] }
    }
  ]
}
